<?xml version="1.0" encoding="UTF-8"?>
<markers>
<marker name="Shell Newclare" address1="Steers Newclare (Shell)" address2="P.O. Box 88243" address3="Industria" tel="011-474-7529" mon="08:00" tues="08:00" wed="08:00" thur="08:00" fri="08:00" sat="08:00" sun="09:00" public="09:00" monEnd="22:00" tuesEnd="22:00" wedEnd="22:00" thurEnd="22:00" friEnd="22:00" satEnd="24:00" sunEnd="20:30" publicEnd="22:30" type="shell" hrs24="0" chaywa="0" lat="-26.1899" lng="27.9686" distance="2.774405134578647"/>
<marker name="Amalgam" address1="Cnr Main Reef &amp; Production Roads" address2="Doornfontein" address3="" tel="011-661-4370" mon="00:00" tues="00:00" wed="00:00" thur="00:00" fri="00:00" sat="00:00" sun="00:00" public="00:00" monEnd="23:59" tuesEnd="23:59" wedEnd="23:59" thurEnd="23:59" friEnd="23:59" satEnd="23:59" sunEnd="23:59" publicEnd="23:59" type="" hrs24="1" chaywa="0" lat="-26.2132" lng="28.0002" distance="3.5780386496098266"/>
<marker name="Ormonde" address1="Shop 2 Nandos Building" address2="Roodepoort" address3="Ormonde Ext 19" tel="011-835-1642" mon="10:00" tues="10:00" wed="10:00" thur="10:00" fri="10:00" sat="10:00" sun="11:00" public="10:00" monEnd="21:00" tuesEnd="21:00" wedEnd="21:00" thurEnd="21:00" friEnd="21:00" satEnd="21:00" sunEnd="21:00" publicEnd="21:00" type="" hrs24="0" chaywa="0" lat="-26.2386" lng="28.0122" distance="5.469206906777917"/>
<marker name="Melville" address1="Shop No 16B The Boulevard" address2="Bergbron" address3="Melville" tel="011-482-9520" mon="09:00" tues="09:00" wed="09:00" thur="09:00" fri="09:00" sat="00:00" sun="09:00" public="09:00" monEnd="22:00" tuesEnd="22:00" wedEnd="22:00" thurEnd="22:00" friEnd="22:00" satEnd="23:59" sunEnd="20:00" publicEnd="20:00" type="" hrs24="1" chaywa="0" lat="-26.1759" lng="28.0004" distance="5.604118115817559"/>
<marker name="Gold Reef City" address1="Shop 5 Gold Reef City Casino" address2="Krugersdorop" address3="Ormonde" tel="011-469-3850" mon="09:00" tues="09:00" wed="09:00" thur="09:00" fri="09:00" sat="09:00" sun="09:00" public="09:00" monEnd="01:00" tuesEnd="01:00" wedEnd="01:00" thurEnd="01:00" friEnd="01:00" satEnd="01:00" sunEnd="01:00" publicEnd="01:00" type="" hrs24="0" chaywa="0" lat="-26.2376" lng="28.0146" distance="5.627800741874836"/>
<marker name="Fordsburg" address1="Cnr Dolly Radebe &amp; Avenue Roads" address2="Broadway" address3="Johannesburg" tel="011-833-7807" mon="10:00" tues="10:00" wed="10:00" thur="10:00" fri="10:00" sat="10:00" sun="10:00" public="09:00" monEnd="21:00" tuesEnd="21:00" wedEnd="21:00" thurEnd="21:00" friEnd="22:00" satEnd="22:00" sunEnd="21:00" publicEnd="21:00" type="" hrs24="0" chaywa="0" lat="-26.204" lng="28.0211" distance="5.78053560681081"/>
<marker name="Goldman Crossing" address1="Shop No:19" address2="Newclare" address3="Cnr Goldman Str And 9Th Ave" tel="011-674-4131" mon="09:00" tues="09:00" wed="09:00" thur="09:00" fri="09:00" sat="09:00" sun="09:00" public="09:00" monEnd="21:00" tuesEnd="21:00" wedEnd="21:00" thurEnd="21:00" friEnd="21:00" satEnd="21:00" sunEnd="20:00" publicEnd="20:00" type="" hrs24="0" chaywa="0" lat="-26.1765" lng="27.9239" distance="5.848995740446943"/>
<marker name="Bergbron" address1="Shop 8B The Berg" address2="Honeydew" address3="Bergbron" tel="011-673-2190" mon="09:00" tues="09:00" wed="09:00" thur="09:00" fri="09:00" sat="09:00" sun="09:00" public="09:00" monEnd="21:00" tuesEnd="21:00" wedEnd="21:00" thurEnd="21:00" friEnd="21:00" satEnd="21:00" sunEnd="20:00" publicEnd="20:00" type="" hrs24="0" chaywa="0" lat="-26.1628" lng="27.9519" distance="5.888285680197339"/>
<marker name="Southgate Upper Level" address1="Shop 21 Southgate Mall" address2="Norkem Park" address3="Mondeor" tel="011-942-4991" mon="09:00" tues="09:00" wed="09:00" thur="09:00" fri="09:00" sat="09:00" sun="09:00" public="09:00" monEnd="21:00" tuesEnd="21:00" wedEnd="21:00" thurEnd="21:00" friEnd="22:00" satEnd="22:00" sunEnd="21:00" publicEnd="22:00" type="" hrs24="0" chaywa="0" lat="-26.2654" lng="27.981" distance="5.891602562620924"/>
<marker name="Bara Mall Soweto" address1="Shop No 16 Bara Mall" address2="Braamfotien" address3="Gauteng" tel="011-938-9221" mon="09:00" tues="09:00" wed="09:00" thur="09:00" fri="09:00" sat="09:00" sun="10:00" public="10:00" monEnd="20:00" tuesEnd="20:00" wedEnd="20:00" thurEnd="20:00" friEnd="20:00" satEnd="21:00" sunEnd="19:00" publicEnd="19:00" type="" hrs24="0" chaywa="0" lat="-26.259" lng="27.9302" distance="6.002529937551579"/>
<marker name="engen Meadowpoint Soweto" address1="23674 Hekroodt Circle" address2="Braamfontein" address3="Soweto" tel="011-936-3848" mon="07:00" tues="07:00" wed="07:00" thur="07:00" fri="07:00" sat="07:00" sun="07:00" public="07:00" monEnd="23:00" tuesEnd="23:00" wedEnd="23:00" thurEnd="23:00" friEnd="23:00" satEnd="23:00" sunEnd="23:00" publicEnd="23:00" type="engen" hrs24="0" chaywa="0" lat="-26.2192" lng="27.8996" distance="6.481284794258384"/>
<marker name="Columbine D/T" address1="Columbine Crossing Shopping Centre" address2="Bertsham" address3="Mondeor" tel="011-941-3913" mon="09:30" tues="09:30" wed="09:30" thur="09:30" fri="09:30" sat="09:30" sun="09:30" public="09:30" monEnd="21:30" tuesEnd="21:30" wedEnd="21:30" thurEnd="21:30" friEnd="22:00" satEnd="22:00" sunEnd="21:30" publicEnd="20:30" type="" hrs24="0" chaywa="0" lat="-26.2703" lng="27.9877" distance="6.620559685613702"/>
<marker name="total Newtown" address1="total Garage" address2="Newtown" address3="New Town" tel="011-834-6943" mon="00:00" tues="00:00" wed="00:00" thur="00:00" fri="00:00" sat="00:00" sun="00:00" public="00:00" monEnd="23:59" tuesEnd="23:59" wedEnd="23:59" thurEnd="23:59" friEnd="23:59" satEnd="23:59" sunEnd="23:59" publicEnd="23:59" type="total" hrs24="1" chaywa="0" lat="-26.1998" lng="28.0328" distance="7.021861963424225"/>
<marker name="engen Klipriver (Klip Drive)" address1="Klipdrive Service Centre" address2="Bassonia" address3="West Turffontein" tel="011-434-1798" mon="09:00" tues="09:00" wed="09:00" thur="09:00" fri="09:00" sat="09:00" sun="09:00" public="09:00" monEnd="21:00" tuesEnd="21:00" wedEnd="21:00" thurEnd="21:00" friEnd="21:00" satEnd="22:00" sunEnd="21:00" publicEnd="21:00" type="engen" hrs24="0" chaywa="0" lat="-26.2439" lng="28.0284" distance="7.172170869584564"/>
<marker name="Braamfontein" address1="Shop 1 Jorbic House" address2="Norwood" address3="Braamfontein" tel="011-339-8152" mon="09:00" tues="09:00" wed="09:00" thur="09:00" fri="09:00" sat="09:00" sun="09:00" public="09:00" monEnd="21:00" tuesEnd="21:00" wedEnd="21:00" thurEnd="21:00" friEnd="21:00" satEnd="21:00" sunEnd="21:00" publicEnd="21:00" type="" hrs24="0" chaywa="0" lat="-26.1926" lng="28.037" distance="7.646942663466584"/>
<marker name="El Corro" address1="L'Corro Shopping Centre" address2="Cnr Bagley Terrace &amp; Weltevreden Road" address3="Ferndale" tel="011-476-8746" mon="09:00" tues="09:00" wed="09:00" thur="09:00" fri="09:00" sat="09:00" sun="09:00" public="10:00" monEnd="21:00" tuesEnd="21:00" wedEnd="21:00" thurEnd="21:00" friEnd="21:00" satEnd="21:00" sunEnd="21:00" publicEnd="21:00" type="" hrs24="0" chaywa="0" lat="-26.1448" lng="27.9541" distance="7.824277145555728"/>
<marker name="Maponya Mall Soweto" address1="Maponya Mall" address2="Bedfordview" address3="mokoerekoere str" tel="011-938-4302" mon="09:00" tues="09:00" wed="09:00" thur="09:00" fri="09:00" sat="09:30" sun="09:30" public="09:30" monEnd="21:00" tuesEnd="21:00" wedEnd="21:00" thurEnd="21:00" friEnd="21:00" satEnd="22:00" sunEnd="21:00" publicEnd="21:00" type="" hrs24="0" chaywa="0" lat="-26.259" lng="27.9029" distance="7.874092275030925"/>
<marker name="Ghandi Square" address1="Shop 7 &amp; 8" address2="Kiasha Park" address3="New South Street, Ghandi Square" tel="011-838-0686" mon="09:00" tues="09:00" wed="09:00" thur="09:00" fri="09:00" sat="09:00" sun="00:00" public="00:00" monEnd="21:00" tuesEnd="21:00" wedEnd="21:00" thurEnd="21:00" friEnd="21:00" satEnd="20:00" sunEnd="00:01" publicEnd="00:01" type="" hrs24="0" chaywa="0" lat="-26.20716" lng="28.04338" distance="7.925455060614515"/>
<marker name="Northcliff" address1="Northcliff Shopping Centre" address2="Helderkruin" address3="Northcliff" tel="011-888-5316" mon="10:00" tues="10:00" wed="10:00" thur="10:00" fri="10:00" sat="10:00" sun="10:00" public="10:00" monEnd="21:00" tuesEnd="21:00" wedEnd="21:00" thurEnd="21:00" friEnd="21:00" satEnd="21:00" sunEnd="21:00" publicEnd="21:00" type="" hrs24="0" chaywa="0" lat="-26.1451" lng="27.9837" distance="7.9609161118114296"/>
<marker name="Park Central" address1="Shop 25 Park Central Shopping Centre" address2="Fordsburg" address3="Johannesburg Cbd" tel="011-333-2522" mon="09:00" tues="09:00" wed="09:00" thur="09:00" fri="09:00" sat="09:00" sun="09:00" public="09:00" monEnd="21:00" tuesEnd="21:00" wedEnd="21:00" thurEnd="21:00" friEnd="21:00" satEnd="21:00" sunEnd="21:00" publicEnd="21:00" type="" hrs24="0" chaywa="0" lat="-26.1978" lng="28.0485" distance="8.598135008561462"/>
<marker name="Columbine Square" address1="Shop 9 Columbine Square" address2="Bertsham" address3="Johannesburg" tel="011-433-9671" mon="09:30" tues="09:30" wed="09:30" thur="09:30" fri="09:30" sat="09:30" sun="09:30" public="10:00" monEnd="21:30" tuesEnd="21:30" wedEnd="21:30" thurEnd="21:30" friEnd="22:00" satEnd="22:00" sunEnd="21:30" publicEnd="21:00" type="" hrs24="0" chaywa="0" lat="-26.2725" lng="28.0296" distance="9.156254864335054"/>
<marker name="Rosettenville - Main Str" address1="202 Main Road" address2="" address3="Rosettenville" tel="011-435-9926" mon="09:00" tues="09:00" wed="09:00" thur="09:00" fri="09:00" sat="09:00" sun="09:00" public="09h00" monEnd="21:00" tuesEnd="21:00" wedEnd="21:00" thurEnd="21:00" friEnd="22:00" satEnd="22:00" sunEnd="21:00" publicEnd="21:00" type="" hrs24="0" chaywa="0" lat="-26.24253" lng="28.05363" distance="9.431389902427398"/>
<marker name="Cresta Centre" address1="Shop U51 Cresta Shopping Centre" address2="Cresta" address3="Cresta" tel="011-678-6397" mon="09:00" tues="09:00" wed="09:00" thur="09:00" fri="09:00" sat="09:00" sun="09:00" public="09:00" monEnd="21:00" tuesEnd="21:00" wedEnd="21:00" thurEnd="21:00" friEnd="21:00" satEnd="21:00" sunEnd="21:00" publicEnd="21:00" type="" hrs24="0" chaywa="0" lat="-26.1284" lng="27.9722" distance="9.612385129109402"/>
<marker name="Florida Junction" address1="Shop 485 A" address2="Bromhof Randburg" address3="Cnr Ontdekkers And Christiaan De Wet Rd" tel="011-472-7825" mon="09:00" tues="09:00" wed="09:00" thur="09:00" fri="09:00" sat="09:00" sun="09:00" public="09:00" monEnd="21:00" tuesEnd="21:00" wedEnd="21:00" thurEnd="21:00" friEnd="21:00" satEnd="21:30" sunEnd="20:00" publicEnd="20:00" type="" hrs24="0" chaywa="0" lat="-26.1481" lng="27.9014" distance="9.69994681131609"/>
<marker name="Town Square" address1="Shop 31 Town Square Shopping Centre" address2="Weltevreden Park" address3="Weltevreden" tel="011-475-2224" mon="09:00" tues="09:00" wed="09:00" thur="09:00" fri="09:00" sat="09:00" sun="09:00" public="09:00" monEnd="21:00" tuesEnd="21:00" wedEnd="21:00" thurEnd="21:00" friEnd="21:00" satEnd="21:00" sunEnd="20:00" publicEnd="20:00" type="" hrs24="0" chaywa="0" lat="-26.1373" lng="27.9184" distance="9.73875160398181"/>
<marker name="Glenanda" address1="Shop 18 Glenanda Village Shopping Centre" address2="Vanderbijl Park" address3="Glenanda" tel="011-432-2899" mon="09:00" tues="09:00" wed="09:00" thur="09:00" fri="09:00" sat="09:00" sun="09:00" public="09:00" monEnd="21:00" tuesEnd="21:00" wedEnd="21:00" thurEnd="21:00" friEnd="22:00" satEnd="22:00" sunEnd="21:00" publicEnd="22:00" type="" hrs24="0" chaywa="0" lat="-26.2719" lng="28.0385" distance="9.763190638835228"/>
<marker name="engen Charlton Terrace (Ellis Park)" address1="Ellis Park Service Station" address2="Bassonia" address3="Ellis Park" tel="011-402-2408" mon="" tues="" wed="" thur="" fri="" sat="" sun="" public="" monEnd="" tuesEnd="" wedEnd="" thurEnd="" friEnd="" satEnd="" sunEnd="" publicEnd="" type="engen" hrs24="1" chaywa="0" lat="-26.1913" lng="28.0608" distance="9.962697071083262"/>
<marker name="The Glen" address1="Shop 4M The Glen Shopping Centre" address2="Brackendowns" address3="Emmarentia" tel="011-435-9070" mon="09:00" tues="09:00" wed="09:00" thur="09:00" fri="09:00" sat="09:00" sun="09:00" public="10:00" monEnd="20:30" tuesEnd="20:30" wedEnd="20:30" thurEnd="20:30" friEnd="22:00" satEnd="22:00" sunEnd="20:30" publicEnd="21:00" type="" hrs24="0" chaywa="0" lat="-26.2683" lng="28.0506" distance="10.472787696020486"/>
<marker name="Comaro Crossing" address1="Shop UG2A Comaro View Shopping Center" address2="Vereeniging" address3="Oakdene" tel="011-436-1551" mon="09:00" tues="09:00" wed="09:00" thur="09:00" fri="09:00" sat="09:00" sun="10:00" public="09:00" monEnd="21:00" tuesEnd="21:00" wedEnd="21:00" thurEnd="21:00" friEnd="21:00" satEnd="21:00" sunEnd="20:00" publicEnd="21:00" type="" hrs24="0" chaywa="0" lat="-26.2651" lng="28.0589" distance="10.976351159467354"/>
<marker name="Weltevreden Park" address1="caltex Garage" address2="Weltervreden Park" address3="Weltevreden Park" tel="011-478-1165" mon="09:00" tues="09:00" wed="09:00" thur="09:00" fri="09:00" sat="09:00" sun="09:00" public="09:00" monEnd="21:00" tuesEnd="21:00" wedEnd="21:00" thurEnd="21:00" friEnd="21:00" satEnd="21:00" sunEnd="21:00" publicEnd="21:00" type="" hrs24="0" chaywa="0" lat="-26.1141" lng="27.9472" distance="11.301214567659176"/>
<marker name="engen City Deep (Market Gateway)" address1="Market Gateway" address2="City Deep" address3="City Deep" tel="011-613-4716" mon="00:00" tues="00:00" wed="00:00" thur="00:00" fri="00:00" sat="00:00" sun="00:00" public="00:00" monEnd="23:59" tuesEnd="23:59" wedEnd="23:59" thurEnd="23:59" friEnd="23:59" satEnd="23:59" sunEnd="23:59" publicEnd="23:59" type="engen" hrs24="1" chaywa="0" lat="-26.2275" lng="28.0768" distance="11.307590153671088"/>
<marker name="Jabulani Mall Soweto" address1="Jabulani Mall" address2="Bedfordview" address3="Soweto" tel="011-930-5511" mon="09:00" tues="09:00" wed="09:00" thur="09:00" fri="09:00" sat="09:00" sun="09:00" public="09:00" monEnd="21:00" tuesEnd="21:00" wedEnd="21:00" thurEnd="21:00" friEnd="21:00" satEnd="22:00" sunEnd="21:00" publicEnd="21:00" type="" hrs24="0" chaywa="0" lat="-26.2493" lng="27.8576" distance="11.328081580682202"/>
<marker name="Clearwater Mall" address1="Cnr Hendrik Potgieter &amp; Christiaan De Wet" address2="Helderkruin" address3="Roodepoort" tel="011-675-5248" mon="09:00" tues="09:00" wed="09:00" thur="09:00" fri="09:00" sat="09:00" sun="09:00" public="09:00" monEnd="21:00" tuesEnd="21:00" wedEnd="21:00" thurEnd="21:00" friEnd="21:00" satEnd="21:00" sunEnd="21:00" publicEnd="21:00" type="" hrs24="0" chaywa="0" lat="-26.1271" lng="27.9046" distance="11.408332937670124"/>
<marker name="Blairgowrie" address1="Shop 1 &amp; 2 Blairgowie Plaza" address2="Wilropark" address3="Blairgowrie" tel="011-886-0185" mon="09:00" tues="09:00" wed="09:00" thur="09:00" fri="09:00" sat="09:00" sun="09:00" public="09:00" monEnd="21:00" tuesEnd="21:00" wedEnd="21:00" thurEnd="21:00" friEnd="21:00" satEnd="22:00" sunEnd="21:00" publicEnd="21:00" type="" hrs24="0" chaywa="0" lat="-26.1157" lng="28.0102" distance="11.906478884371735"/>
<marker name="The Colony" address1="Shop Lg12 The Colony Centre" address2="Craighall" address3="Craighall Park" tel="011-447-7433" mon="09:00" tues="09:00" wed="09:00" thur="09:00" fri="09:00" sat="09:00" sun="09:00" public="09:00" monEnd="21:00" tuesEnd="21:00" wedEnd="21:00" thurEnd="21:00" friEnd="21:00" satEnd="22:00" sunEnd="20:00" publicEnd="21:00" type="" hrs24="0" chaywa="0" lat="-26.1225" lng="28.0297" distance="12.136779611460238"/>
<marker name="Mulbarton" address1="Shop 5 Panorama Shopping Centre" address2="x1" address3="Mulbarton" tel="011-432-4146 /7" mon="09:30" tues="09:30" wed="09:30" thur="09:30" fri="09:30" sat="10:00" sun="10:00" public="10:00" monEnd="21:00" tuesEnd="21:00" wedEnd="21:00" thurEnd="21:00" friEnd="22:00" satEnd="22:00" sunEnd="21:00" publicEnd="22:00" type="" hrs24="0" chaywa="0" lat="-26.2959" lng="28.0461" distance="12.175455255591606"/>
<marker name="Fontainebleau" address1="Fountainbleu Shopping Centre" address2="Cramview" address3="Fountainebleau" tel="011-792-3346" mon="09:00" tues="09:00" wed="09:00" thur="09:00" fri="09:00" sat="09:00" sun="10:00" public="09:00" monEnd="21:00" tuesEnd="21:00" wedEnd="21:00" thurEnd="21:00" friEnd="21:00" satEnd="21:00" sunEnd="20:00" publicEnd="21:00" type="" hrs24="0" chaywa="0" lat="-26.1043" lng="27.9773" distance="12.328110483036834"/>
<marker name="Darras Centre" address1="Shop 8 Darras Centre" address2="Jeppestown" address3="Kensington" tel="011-614-0359" mon="09:30" tues="09:30" wed="09:30" thur="09:30" fri="09:30" sat="09:30" sun="10:00" public="10:00" monEnd="20:30" tuesEnd="20:30" wedEnd="20:30" thurEnd="20:30" friEnd="20:30" satEnd="20:30" sunEnd="20:00" publicEnd="21:00" type="" hrs24="0" chaywa="0" lat="-26.1921" lng="28.088" distance="12.585058174817812"/>
<marker name="Norwood" address1="Shop 3 Azaline Court" address2="67 Grant Avenue" address3="Norwood" tel="011-483-1484" mon="09:00" tues="09:00" wed="09:00" thur="09:00" fri="09:00" sat="09:00" sun="09:00" public="09:00" monEnd="21:00" tuesEnd="21:00" wedEnd="21:00" thurEnd="21:00" friEnd="21:00" satEnd="22:00" sunEnd="20:00" publicEnd="20:00" type="" hrs24="0" chaywa="0" lat="-26.158" lng="28.0765" distance="12.835462384833251"/>
<marker name="Westgate 2" address1="Shop 141 Westgate Shopping Centre" address2="Krugersdorp" address3="Roodepoort" tel="011-768-0185" mon="09:00" tues="09:00" wed="09:00" thur="09:00" fri="09:00" sat="09:00" sun="09:00" public="09:00" monEnd="21:00" tuesEnd="21:00" wedEnd="21:00" thurEnd="21:00" friEnd="21:00" satEnd="22:00" sunEnd="21:00" publicEnd="21:00" type="" hrs24="0" chaywa="0" lat="-26.1395" lng="27.8632" distance="13.098666819769528"/>
<marker name="Westgate 1" address1="Shop 21 Westgate Shopping Centre" address2="Krugersdorp" address3="Roodepoort" tel="011-768-0146" mon="09:00" tues="09:00" wed="09:00" thur="09:00" fri="09:00" sat="09:00" sun="09:00" public="09:00" monEnd="21:00" tuesEnd="21:00" wedEnd="21:00" thurEnd="21:00" friEnd="21:00" satEnd="22:00" sunEnd="21:00" publicEnd="21:00" type="" hrs24="0" chaywa="0" lat="-26.1394" lng="27.8632" distance="13.105758124491942"/>
<marker name="Lifestyle Crossing" address1="Shop 14" address2="Helderkruin" address3="Wilgeheuwel" tel="011-679-4064" mon="10:00" tues="10:00" wed="10:00" thur="10:00" fri="10:00" sat="10:00" sun="10:00" public="10:00" monEnd="21:00" tuesEnd="21:00" wedEnd="21:00" thurEnd="21:00" friEnd="21:00" satEnd="21:00" sunEnd="20:00" publicEnd="20:00" type="" hrs24="0" chaywa="0" lat="-26.1129" lng="27.8954" distance="13.234612224754478"/>
<marker name="Shell Diner Denver" address1="M2 East Motorway" address2="Cleaveland" address3="Johannesburg" tel="011-615-2984" mon="00:00" tues="00:00" wed="00:00" thur="00:00" fri="00:00" sat="00:00" sun="00:00" public="00:00" monEnd="23:59" tuesEnd="23:59" wedEnd="23:59" thurEnd="23:59" friEnd="23:59" satEnd="23:59" sunEnd="23:59" publicEnd="23:59" type="shell" hrs24="1" chaywa="0" lat="-26.2103" lng="28.1039" distance="13.928047235331977"/>
<marker name="Honeydew Ridge" address1="Shop 2 Honeydew Ridge Shopping Centre" address2="Honeydew" address3="Honeydew" tel="011-475-0532" mon="09:00" tues="09:00" wed="09:00" thur="09:00" fri="09:00" sat="09:00" sun="09:00" public="09:00" monEnd="21:00" tuesEnd="21:00" wedEnd="21:00" thurEnd="21:00" friEnd="21:00" satEnd="21:30" sunEnd="20:00" publicEnd="20:00" type="" hrs24="0" chaywa="0" lat="-26.1006" lng="27.9054" distance="13.971683859772044"/>
<marker name="Melrose Crossing" address1="Shop No 83-85 Melrose Crossing" address2="Parkview" address3="Melrose" tel="011-440-3365" mon="09:00" tues="09:00" wed="09:00" thur="09:00" fri="09:00" sat="10:00" sun="09:00" public="09:00" monEnd="21:00" tuesEnd="21:00" wedEnd="21:00" thurEnd="21:00" friEnd="21:00" satEnd="21:00" sunEnd="21:00" publicEnd="21:00" type="" hrs24="0" chaywa="0" lat="-26.1293" lng="28.0683" distance="14.052060096499705"/>
<marker name="Protea Gardens Soweto" address1="Shop 73 Protea Gardens Shopping Centre" address2="Bedfordview" address3="alekhine str" tel="011-980-1994" mon="09:30" tues="09:30" wed="09:30" thur="09:30" fri="09:30" sat="09:30" sun="09:00" public="09:00" monEnd="21:00" tuesEnd="21:00" wedEnd="21:00" thurEnd="21:00" friEnd="21:00" satEnd="21:00" sunEnd="22:00" publicEnd="22:00" type="" hrs24="0" chaywa="0" lat="-26.2868" lng="27.8483" distance="14.089066593778908"/>
<marker name="Total William Nicol" address1="49 Minerva Ave" address2="Glenadrienne" address3="Sandton" tel="011-883-1985" mon="24 ho" tues="24 ho" wed="24 ho" thur="24 ho" fri="24 ho" sat="24 ho" sun="24 ho" public="09:00" monEnd="hours" tuesEnd="hours" wedEnd="hours" thurEnd="hours" friEnd="hours" satEnd="hours" sunEnd="hours" publicEnd="21:00" type="total" hrs24="1" chaywa="0" lat="-26.098" lng="28.0319" distance="14.608849602509789"/>
<marker name="Sandton City" address1="Shop Fc4 Food Court Sandton Shopping Centre" address2="Sandton" address3="Sandton" tel="011-784-4911" mon="09:00" tues="09:00" wed="09:00" thur="09:00" fri="09:00" sat="09:00" sun="09:00" public="09:00" monEnd="21:00" tuesEnd="21:00" wedEnd="21:00" thurEnd="21:00" friEnd="21:00" satEnd="21:00" sunEnd="21:00" publicEnd="21:00" type="" hrs24="0" chaywa="0" lat="-26.1101" lng="28.054" distance="14.661006583363715"/>
<marker name="Ontdekkers D/T" address1="Shop 60 Princess Crossing Shopping Centre" address2="Krugersdorp" address3="Roodepoort" tel="011-764-1199" mon="09:00" tues="09:00" wed="09:00" thur="09:00" fri="09:00" sat="09:00" sun="09:00" public="09:00" monEnd="22:00" tuesEnd="22:00" wedEnd="22:00" thurEnd="22:00" friEnd="22:00" satEnd="22:00" sunEnd="22:00" publicEnd="22:00" type="" hrs24="0" chaywa="0" lat="-26.1299" lng="27.8507" distance="14.740596754138547"/>
<marker name="Highlands North" address1="Shop 4 &amp; 5 Highlands North Shopping Centre" address2="Orange Grove" address3="Highlands North" tel="011-786-6852" mon="09:00" tues="09:00" wed="09:00" thur="09:00" fri="09:00" sat="09:00" sun="09:00" public="09:00" monEnd="22:00" tuesEnd="22:00" wedEnd="22:00" thurEnd="22:00" friEnd="22:00" satEnd="22:00" sunEnd="22:00" publicEnd="22:00" type="" hrs24="0" chaywa="0" lat="-26.139" lng="28.0872" distance="14.860814018845584"/>
<marker name="Ferndale Village Randburg" address1="Shop G46" address2="Ferndale Village Shopping Centre" address3="Ferndale" tel="011-787-8637" mon="10:00" tues="10:00" wed="10:00" thur="10:00" fri="10:00" sat="10:00" sun="10:00" public="09:00" monEnd="21:00" tuesEnd="21:00" wedEnd="21:00" thurEnd="21:00" friEnd="21:00" satEnd="21:00" sunEnd="21:00" publicEnd="21:00" type="" hrs24="0" chaywa="0" lat="-26.0814" lng="27.9975" distance="15.171579977547088"/>
<marker name="Bromhof" address1="Shop 9 Bromhof Village" address2="Bromhof" address3="Bromhof" tel="011-792-5555" mon="09:00" tues="09:00" wed="09:00" thur="09:00" fri="09:00" sat="09:00" sun="09:00" public="09:00" monEnd="21:00" tuesEnd="21:00" wedEnd="21:00" thurEnd="21:00" friEnd="21:00" satEnd="21:00" sunEnd="21:00" publicEnd="21:00" type="" hrs24="0" chaywa="0" lat="-26.0781" lng="27.9625" distance="15.17477946866986"/>
<marker name="Meyersdal D/T" address1="Shop No 41 Meyersdal Mall" address2="Alberton" address3="Meyersdal" tel="011-867-5443" mon="09:00" tues="09:00" wed="09:00" thur="09:00" fri="09:00" sat="09:00" sun="09:00" public="09:00" monEnd="21:00" tuesEnd="21:00" wedEnd="21:00" thurEnd="21:00" friEnd="21:00" satEnd="21:00" sunEnd="21:00" publicEnd="21:00" type="" hrs24="0" chaywa="0" lat="-26.2908" lng="28.0907" distance="15.185455780527336"/>
<marker name="engen Ouklip" address1="Ouklip Service Centre" address2="Helderkruin" address3="Wilropark" tel="011-764-2017" mon="00:00" tues="00:00" wed="00:00" thur="00:00" fri="00:00" sat="00:00" sun="00:00" public="00:00" monEnd="23:59" tuesEnd="23:59" wedEnd="23:59" thurEnd="23:59" friEnd="23:59" satEnd="23:59" sunEnd="23:59" publicEnd="23:59" type="engen" hrs24="1" chaywa="0" lat="-26.112" lng="27.8607" distance="15.397842390657953"/>
<marker name="Honeydew" address1="Shop 18 Honeydew Shopping Centre" address2="honeydew" address3="Honeydew" tel="011-794-1287" mon="09:00" tues="09:00" wed="09:00" thur="09:00" fri="09:00" sat="09:00" sun="09:00" public="09:00" monEnd="21:00" tuesEnd="21:00" wedEnd="21:00" thurEnd="21:00" friEnd="21:00" satEnd="21:00" sunEnd="21:00" publicEnd="21:00" type="" hrs24="0" chaywa="0" lat="-26.0792" lng="27.926" distance="15.530840986351974"/>
<marker name="engen Bassons Witpoortjie" address1="Basson'S Service Station" address2="Westgate" address3="Witpoortjie" tel="011-664-7210" mon="00:00" tues="00:00" wed="00:00" thur="00:00" fri="00:00" sat="00:00" sun="00:00" public="00:00" monEnd="23:59" tuesEnd="23:59" wedEnd="23:59" thurEnd="23:59" friEnd="23:59" satEnd="23:59" sunEnd="23:59" publicEnd="23:59" type="engen" hrs24="1" chaywa="0" lat="-26.1343" lng="27.835" distance="15.694131089620656"/>
<marker name="Eastgate" address1="Shop R7 Eastgate Shopping Centre" address2="Eastgate Shopping Centre" address3="" tel="011-615-9977" mon="09:00" tues="09:00" wed="09:00" thur="09:00" fri="09:00" sat="09:00" sun="09:00" public="09:00" monEnd="21:00" tuesEnd="21:00" wedEnd="21:00" thurEnd="21:00" friEnd="21:00" satEnd="21:00" sunEnd="22:00" publicEnd="22:00" type="" hrs24="0" chaywa="0" lat="-26.1799" lng="28.1189" distance="15.892777748686713"/>
<marker name="Bedford Centre" address1="Shop U55 Bedford Centre" address2="Menlo Park" address3="Bedford Gardens" tel="011-622-1340" mon="08:30" tues="08:30" wed="08:30" thur="08:30" fri="08:30" sat="08:30" sun="08:30" public="08:30" monEnd="21:00" tuesEnd="21:00" wedEnd="21:00" thurEnd="21:00" friEnd="21:00" satEnd="21:30" sunEnd="21:00" publicEnd="21:00" type="" hrs24="0" chaywa="0" lat="-26.188" lng="28.1241" distance="16.208004918426557"/>
<marker name="Grayston Shopping Centre" address1="Shop No4" address2="Extension30" address3="Sandton" tel="011-784-1130" mon="09:00" tues="09:00" wed="09:00" thur="09:00" fri="09:00" sat="09:00" sun="09:00" public="09:00" monEnd="21:00" tuesEnd="21:00" wedEnd="21:00" thurEnd="21:00" friEnd="22:30" satEnd="22:30" sunEnd="21:00" publicEnd="21:00" type="" hrs24="0" chaywa="0" lat="-26.099473" lng="28.065712" distance="16.312005646481907"/>
<marker name="Featherbrooke Village" address1="Shop 6 Featherbrok Village Shopping Centre" address2="Ruimsig" address3="Ruimsig" tel="011-958-2367" mon="09:00" tues="09:00" wed="09:00" thur="09:00" fri="09:00" sat="09:00" sun="09:00" public="09:00" monEnd="21:00" tuesEnd="21:00" wedEnd="21:00" thurEnd="21:00" friEnd="21:00" satEnd="21:00" sunEnd="20:00" publicEnd="20:00" type="" hrs24="0" chaywa="1" lat="-26.0936" lng="27.8692" distance="16.465889389545023"/>
<marker name="Alberton D/T" address1="Shop 1 Gateway Centre" address2="Benmore" address3="East Alberton" tel="011-907-4287" mon="09:00" tues="09:00" wed="09:00" thur="09:00" fri="09:00" sat="09:00" sun="09:00" public="09:00" monEnd="22:00" tuesEnd="22:00" wedEnd="22:00" thurEnd="22:00" friEnd="22:00" satEnd="23:00" sunEnd="21:00" publicEnd="21:00" type="" hrs24="0" chaywa="0" lat="-26.2606" lng="28.1214" distance="16.477847106546207"/>
<marker name="Pan Africa" address1="Shop G13" address2="Gallo Manor" address3="Cnr Watts &amp; 2nd Street" tel="011-786-1756" mon="09h00" tues="09h00" wed="09h00" thur="09h00" fri="09h00" sat="09h00" sun="09h00" public="09h00" monEnd="21h00" tuesEnd="21h00" wedEnd="21h00" thurEnd="21h00" friEnd="21h00" satEnd="21h00" sunEnd="21h00" publicEnd="20h00" type="" hrs24="0" chaywa="0" lat="-26.1104" lng="28.0884" distance="16.95239508898821"/>
<marker name="Bel Air Mall D/T" address1="Shop Ff2 Bel Air Shopping Mall" address2="Benmore" address3="Northriding" tel="011-704-2370" mon="09:30" tues="09:30" wed="09:30" thur="09:30" fri="09:30" sat="08:30" sun="08:30" public="08:30" monEnd="22:00" tuesEnd="22:00" wedEnd="22:00" thurEnd="22:00" friEnd="22:00" satEnd="23:00" sunEnd="22:00" publicEnd="22:00" type="" hrs24="0" chaywa="0" lat="-26.0597" lng="27.958" distance="17.23134286792986"/>
<marker name="Trade Route Mall Lenasia" address1="Shop L21 Trade Route Mall Shopping Centre" address2="Lenasia Ext" address3="Lenasia" tel="011-852-0096" mon="10:30" tues="10:30" wed="10:30" thur="10:30" fri="10:30" sat="09:00" sun="10:00" public="10:00" monEnd="20:00" tuesEnd="20:00" wedEnd="20:00" thurEnd="20:00" friEnd="20:00" satEnd="21:00" sunEnd="20:30" publicEnd="20:30" type="" hrs24="0" chaywa="0" lat="-26.3094" lng="27.8272" distance="17.271176850513612"/>
<marker name="Bedford Village View" address1="Shop 30 Village View Shopping Centre" address2="Gardenview" address3="Bedford View" tel="011-455-1540" mon="09:00" tues="09:00" wed="09:00" thur="09:00" fri="09:00" sat="09:00" sun="09:00" public="09:00" monEnd="21:00" tuesEnd="21:00" wedEnd="21:00" thurEnd="21:00" friEnd="21:00" satEnd="21:00" sunEnd="21:00" publicEnd="21:00" type="" hrs24="0" chaywa="0" lat="-26.1834" lng="28.1358" distance="17.451711994660073"/>
<marker name="total Senderwood" address1="2 Wordsworth Avenue" address2="Houghton" address3="Linksfield" tel="011-454-4901" mon="08:00" tues="08:00" wed="08:00" thur="08:00" fri="08:00" sat="08:00" sun="08:00" public="08:00" monEnd="22:00" tuesEnd="22:00" wedEnd="22:00" thurEnd="22:00" friEnd="22:00" satEnd="22:00" sunEnd="22:00" publicEnd="22:00" type="total" hrs24="0" chaywa="1" lat="-26.1498" lng="28.1242" distance="17.499504683775182"/>
<marker name="Olivedale" address1="Shop 3 &amp; 4 All Saints Shopping Centre" address2="Weltervreden Park" address3="Olivedale" tel="011-704-5550" mon="09:00" tues="09:00" wed="09:00" thur="09:00" fri="09:00" sat="09:00" sun="09:00" public="09:30" monEnd="21:00" tuesEnd="21:00" wedEnd="21:00" thurEnd="21:00" friEnd="21:00" satEnd="21:00" sunEnd="21:00" publicEnd="21:00" type="" hrs24="0" chaywa="0" lat="-26.0542" lng="27.9723" distance="17.848781572293657"/>
<marker name="Lenasia Signet Terrace ( ex Lenasia CBD)" address1="Shop 4" address2="Lenasia" address3="Gemsbok Street" tel="011-854-6004 /3542" mon="09:00" tues="09:00" wed="09:00" thur="09:00" fri="09:00" sat="09:00" sun="08:30" public="08:30" monEnd="20:00" tuesEnd="20:00" wedEnd="20:00" thurEnd="20:00" friEnd="20:00" satEnd="21:30" sunEnd="20:00" publicEnd="20:00" type="" hrs24="0" chaywa="0" lat="-26.3198" lng="27.828" distance="17.939598325453513"/>
<marker name="Grosvenor Crossing" address1="Grosvenor Crossing Shopping Centre" address2="Krugersdorp" address3="Bryanston" tel="011-463-5838" mon="09:00" tues="09:00" wed="09:00" thur="09:00" fri="09:00" sat="09:00" sun="09:00" public="09:00" monEnd="21:00" tuesEnd="21:00" wedEnd="21:00" thurEnd="21:00" friEnd="21:00" satEnd="22:00" sunEnd="21:00" publicEnd="21:00" type="" hrs24="0" chaywa="0" lat="-26.0597" lng="28.0231" distance="18.190443752013365"/>
<marker name="engen Glendower" address1="Glendower Convenience Store" address2="Craighall" address3="Glendower Edenvale" tel="011-453-0500" mon="09:00" tues="09:00" wed="09:00" thur="09:00" fri="00:00" sat="00:00" sun="09:00" public="09:00" monEnd="21:00" tuesEnd="21:00" wedEnd="21:00" thurEnd="21:00" friEnd="23:59" satEnd="23:59" sunEnd="18:00" publicEnd="21:00" type="engen" hrs24="1" chaywa="0" lat="-26.1499" lng="28.135" distance="18.482705820780073"/>
<marker name="90 Degrees on Rivonia (Morningside)" address1="Shop 2 Pavillion Shopping Centre" address2="Berthsham" address3="Morningside" tel="011-804-4262" mon="09:00" tues="09:00" wed="09:00" thur="09:00" fri="09:00" sat="10:00" sun="10:00" public="10:00" monEnd="21:00" tuesEnd="21:00" wedEnd="21:00" thurEnd="21:00" friEnd="22:00" satEnd="22:30" sunEnd="22:00" publicEnd="22:00" type="" hrs24="0" chaywa="0" lat="-26.07205" lng="28.06428" distance="18.723682257351324"/>
<marker name="Northgate" address1="Shop Sh 208 - Entrance 6" address2="Benmore" address3="Northumberland Avenue" tel="011-794-4125" mon="09:30" tues="09:30" wed="09:30" thur="09:30" fri="09:30" sat="09:00" sun="09:00" public="09:00" monEnd="21:00" tuesEnd="21:00" wedEnd="21:00" thurEnd="21:00" friEnd="21:00" satEnd="23:00" sunEnd="20:00" publicEnd="20:00" type="" hrs24="0" chaywa="0" lat="-26.0452" lng="27.9549" distance="18.855641282623157"/>
<marker name="total Northriding" address1="total Garage" address2="Honeydew" address3="Randburg Northriding" tel="011-462-4523" mon="00:00" tues="00:00" wed="00:00" thur="00:00" fri="00:00" sat="00:00" sun="00:00" public="00:00" monEnd="23:59" tuesEnd="23:59" wedEnd="23:59" thurEnd="23:59" friEnd="23:59" satEnd="23:59" sunEnd="23:59" publicEnd="23:59" type="total" hrs24="1" chaywa="0" lat="-26.0444" lng="27.9539" distance="18.949727797632786"/>
<marker name="engen Jack Street (Germiston)" address1="Cnr Jack Street &amp; Refinery Road" address2="Bracken Gardens" address3="" tel="011-873-8447" mon="00:00" tues="00:00" wed="00:00" thur="00:00" fri="00:00" sat="00:00" sun="00:00" public="00:00" monEnd="23:59" tuesEnd="23:59" wedEnd="23:59" thurEnd="23:59" friEnd="23:59" satEnd="23:59" sunEnd="23:59" publicEnd="23:59" type="engen" hrs24="0" chaywa="0" lat="-26.2178" lng="28.1558" distance="19.10031272531732"/>
<marker name="Dowerglen" address1="The Glen Curve" address2="Dowerglen" address3="Marais Steyn Park" tel="011-452-9981" mon="10:00" tues="10:00" wed="10:00" thur="10:00" fri="10:00" sat="10:00" sun="10:00" public="10:00" monEnd="21:00" tuesEnd="21:00" wedEnd="21:00" thurEnd="21:00" friEnd="21:00" satEnd="21:30" sunEnd="21:00" publicEnd="21:00" type="" hrs24="0" chaywa="0" lat="-26.1388" lng="28.1379" distance="19.257437235197298"/>
<marker name="total Albermale" address1="29 Hatfield Street" address2="Albermale" address3="Germiston" tel="011-865-4414" mon="00:00" tues="00:00" wed="00:00" thur="00:00" fri="00:00" sat="00:00" sun="00:00" public="00:00" monEnd="23:59" tuesEnd="23:59" wedEnd="23:59" thurEnd="23:59" friEnd="23:59" satEnd="23:59" sunEnd="23:59" publicEnd="23:59" type="total" hrs24="0" chaywa="0" lat="-26.2648" lng="28.1544" distance="19.75957360644381"/>
<marker name="Noordheuwel" address1="Shop 23 Noordheuwel Shopping Centre" address2="Helderkruin" address3="Noordheuwel" tel="011-954-4394" mon="09:00" tues="09:00" wed="09:00" thur="09:00" fri="09:00" sat="09:00" sun="09:00" public="10:00" monEnd="21:00" tuesEnd="21:00" wedEnd="21:00" thurEnd="21:00" friEnd="21:00" satEnd="21:00" sunEnd="20:00" publicEnd="21:00" type="" hrs24="0" chaywa="0" lat="-26.0893" lng="27.8184" distance="20.15571177191377"/>
<marker name="Edenmeadows" address1="Shop 8 Edenmeadows Shopping Centre" address2="Dowerglen" address3="Edenmeadows" tel="011-524-0547" mon="09:00" tues="09:00" wed="09:00" thur="09:00" fri="09:00" sat="09:00" sun="09:00" public="09:00" monEnd="22:00" tuesEnd="22:00" wedEnd="22:00" thurEnd="22:00" friEnd="22:00" satEnd="22:00" sunEnd="22:00" publicEnd="22:00" type="" hrs24="0" chaywa="0" lat="-26.1216" lng="28.1387" distance="20.237237140756154"/>
<marker name="total Primrose" address1="total Service Station" address2="Primrose" address3="" tel="011-828-3554" mon="06:00" tues="06:00" wed="06:00" thur="06:00" fri="06:00" sat="00:00" sun="06:00" public="00:00" monEnd="22:00" tuesEnd="22:00" wedEnd="22:00" thurEnd="22:00" friEnd="22:00" satEnd="23:59" sunEnd="22:00" publicEnd="23:59" type="total" hrs24="0" chaywa="0" lat="-26.1853" lng="28.1712" distance="20.890954680839894"/>
<marker name="Anthos" address1="Shop 3" address2="Krugersdorp" address3="Voortrekker Road" tel="011-954-4599" mon="10:00" tues="10:00" wed="10:00" thur="10:00" fri="10:00" sat="10:00" sun="10:00" public="10:00" monEnd="21:00" tuesEnd="21:00" wedEnd="21:00" thurEnd="21:00" friEnd="21:00" satEnd="21:00" sunEnd="20:00" publicEnd="21:00" type="" hrs24="0" chaywa="0" lat="-26.1012" lng="27.7973" distance="20.902532597719993"/>
<marker name="engen Rivonia" address1="270 Rivonia Road" address2="Rivonia" address3="Sandton" tel="011-803-0858" mon="00:00" tues="00:00" wed="00:00" thur="00:00" fri="00:00" sat="00:00" sun="00:00" public="00:00" monEnd="23:59" tuesEnd="23:59" wedEnd="23:59" thurEnd="23:59" friEnd="23:59" satEnd="23:59" sunEnd="23:59" publicEnd="23:59" type="engen" hrs24="1" chaywa="0" lat="-26.04637" lng="28.05927" distance="20.964797861763774"/>
<marker name="Sunnyrock DT" address1="BP Service Station" address2="Selcourt" address3="Sunnyrock ext 9" tel="011-026-5225" mon="09:00" tues="09:00" wed="09:00" thur="09:00" fri="09:00" sat="09:00" sun="09:00" public="09:00" monEnd="21:00" tuesEnd="21:00" wedEnd="21:00" thurEnd="21:00" friEnd="21:00" satEnd="21:00" sunEnd="20:00" publicEnd="20:00" type="BP" hrs24="0" chaywa="0" lat="-26.16703" lng="28.16857" distance="21.04953051537382"/>
<marker name="Monte Casino" address1="Shop 44 Monte Casino" address2="Benmore" address3="Fourways 2196" tel="011-511-1980" mon="10:00" tues="10:00" wed="10:00" thur="10:00" fri="10:00" sat="09:30" sun="09:30" public="09:30" monEnd="02:00" tuesEnd="02:00" wedEnd="02:00" thurEnd="02:00" friEnd="02:00" satEnd="03:00" sunEnd="02:00" publicEnd="02:00" type="" hrs24="0" chaywa="0" lat="-26.0245" lng="28.0123" distance="21.668789600475733"/>
<marker name="Woodmead" address1="Shop 12 Woodmead Value Mart" address2="Strubensvalley" address3="Woodmead Ext 5" tel="011-804-4450" mon="08:00" tues="08:00" wed="08:00" thur="08:00" fri="08:00" sat="08:00" sun="08:00" public="09:00" monEnd="20:00" tuesEnd="20:00" wedEnd="20:00" thurEnd="20:00" friEnd="20:00" satEnd="20:00" sunEnd="15:00" publicEnd="21:00" type="" hrs24="0" chaywa="1" lat="-26.0557" lng="28.0922" distance="21.7917577604999"/>
<marker name="Pineslopes" address1="Shop 12 Pineslopes Shoping Centre" address2="Randpark Ridge" address3="Fourways" tel="011-467-0121" mon="09:00" tues="09:00" wed="09:00" thur="09:00" fri="09:00" sat="08:30" sun="09:00" public="09:00" monEnd="21:00" tuesEnd="21:00" wedEnd="21:00" thurEnd="21:00" friEnd="21:00" satEnd="22:00" sunEnd="21:00" publicEnd="21:00" type="" hrs24="0" chaywa="0" lat="-26.0219" lng="28.0158" distance="22.029688450151856"/>
<marker name="Fourways Mall" address1="Shop L9A Fourways Mall" address2="Sandton" address3="Fourways" tel="011-467-5721" mon="09:00" tues="09:00" wed="09:00" thur="09:00" fri="09:00" sat="09:00" sun="09:00" public="09:00" monEnd="21:00" tuesEnd="21:00" wedEnd="21:00" thurEnd="21:00" friEnd="21:00" satEnd="22:00" sunEnd="21:00" publicEnd="21:00" type="" hrs24="0" chaywa="0" lat="-26.0175" lng="28.0059" distance="22.301010256365863"/>
<marker name="Shell Lambton Gardens" address1="Cnr Weber Road &amp; Karen Avenue" address2="Dalview" address3="1401" tel="011-824-2052" mon="09:00" tues="09:00" wed="09:00" thur="09:00" fri="09:00" sat="09:00" sun="09:00" public="09:00" monEnd="21:00" tuesEnd="21:00" wedEnd="21:00" thurEnd="21:00" friEnd="21:00" satEnd="21:00" sunEnd="21:00" publicEnd="21:00" type="shell" hrs24="0" chaywa="0" lat="-26.2527" lng="28.1865" distance="22.558361610243004"/>
<marker name="Lenasia South" address1="Shop 74 Sheffield Plaza" address2="Kiasha Park" address3="Lenasia South" tel="011-855-1962" mon="10:00" tues="10:00" wed="10:00" thur="10:00" fri="10:00" sat="09:00" sun="10:00" public="10:00" monEnd="21:00" tuesEnd="21:00" wedEnd="21:00" thurEnd="21:00" friEnd="21:00" satEnd="21:00" sunEnd="22:00" publicEnd="22:00" type="" hrs24="0" chaywa="0" lat="-26.4007" lng="27.8729" distance="22.616846535737853"/>
<marker name="Chilli Lane (Sunninghill)" address1="Shop 40B Chilli Lane Shopping Centre" address2="Berthsham" address3="Cnr Rivonia Road" tel="011-807-1170" mon="10:00" tues="10:00" wed="10:00" thur="10:00" fri="10:00" sat="10:00" sun="10:00" public="10:00" monEnd="21:00" tuesEnd="21:00" wedEnd="21:00" thurEnd="21:00" friEnd="21:00" satEnd="22:00" sunEnd="21:00" publicEnd="21:00" type="" hrs24="0" chaywa="0" lat="-26.0291" lng="28.0606" distance="22.75050069874001"/>
<marker name="sasol Katlehong" address1="Cnr Hospital &amp; Moseu Streets" address2="Basonia" address3="Katlehong" tel="011-905-4039" mon="07:00" tues="07:00" wed="07:00" thur="07:00" fri="07:00" sat="07:00" sun="07:00" public="" monEnd="22:00" tuesEnd="22:00" wedEnd="22:00" thurEnd="22:00" friEnd="22:00" satEnd="22:00" sunEnd="22:00" publicEnd="" type="sasol" hrs24="1" chaywa="0" lat="-26.3306" lng="28.1557" distance="23.031436828777675"/>
<marker name="Krugersdorp Drive Thru" address1="8 Paardekraal Road" address2="Krugersdorp" address3="Krugersdorp" tel="011-660-2444" mon="00:00" tues="00:00" wed="00:00" thur="00:00" fri="00:00" sat="00:00" sun="00:00" public="00:00" monEnd="23:59" tuesEnd="23:59" wedEnd="23:59" thurEnd="23:59" friEnd="23:59" satEnd="23:59" sunEnd="23:59" publicEnd="23:59" type="" hrs24="1" chaywa="1" lat="-26.0872" lng="27.7809" distance="23.14928749358739"/>
<marker name="Edenglen" address1="Shop 5 Karaglen Shopping Centre" address2="Edenglen" address3="Edenglen" tel="011-452-4854" mon="09:00" tues="09:00" wed="09:00" thur="09:00" fri="09:00" sat="09:00" sun="09:00" public="09:00" monEnd="22:00" tuesEnd="22:00" wedEnd="22:00" thurEnd="22:00" friEnd="22:00" satEnd="22:00" sunEnd="21:00" publicEnd="21:00" type="" hrs24="0" chaywa="0" lat="-26.1356" lng="28.1795" distance="23.194677877175582"/>
<marker name="engen Othandweni" address1="82 Yende Street" address2="Randhart" address3="Alberton" tel="011-860-3919" mon="07:00" tues="07:00" wed="07:00" thur="07:00" fri="07:00" sat="07:00" sun="07:00" public="07:00" monEnd="21:00" tuesEnd="21:00" wedEnd="21:00" thurEnd="21:00" friEnd="21:00" satEnd="22:00" sunEnd="22:00" publicEnd="22:00" type="engen" hrs24="0" chaywa="0" lat="-26.3647" lng="28.1302" distance="23.495675314341064"/>
<marker name="Broadacres" address1="Shop 20 Broadacres Shopping Centre" address2="Roosevelt Park" address3="Fourways" tel="011-465-4468" mon="09:00" tues="09:00" wed="09:00" thur="09:00" fri="09:00" sat="09:00" sun="09:00" public="09:00" monEnd="21:00" tuesEnd="21:00" wedEnd="21:00" thurEnd="21:00" friEnd="21:00" satEnd="21:00" sunEnd="21:00" publicEnd="21:00" type="" hrs24="0" chaywa="0" lat="-26.0014" lng="27.9834" distance="23.778368872344743"/>
<marker name="total N14 North" address1="total Petroport N14 North Highway" address2="Ruimsig" address3="JQ Lanseria" tel="011-460-0422" mon="00:00" tues="00:00" wed="00:00" thur="00:00" fri="00:00" sat="00:00" sun="00:00" public="00:00" monEnd="23:59" tuesEnd="23:59" wedEnd="23:59" thurEnd="23:59" friEnd="23:59" satEnd="23:59" sunEnd="23:59" publicEnd="23:59" type="total" hrs24="1" chaywa="1" lat="-25.986" lng="27.9206" distance="25.787692824609362"/>
<marker name="total N14 South" address1="total N14 Petropoort N14 South" address2="Bryanston" address3="535 JQ Lanseria" tel="011-460-0397" mon="00:00" tues="00:00" wed="00:00" thur="00:00" fri="00:00" sat="00:00" sun="00:00" public="00:00" monEnd="23:59" tuesEnd="23:59" wedEnd="23:59" thurEnd="23:59" friEnd="23:59" satEnd="23:59" sunEnd="23:59" publicEnd="23:59" type="total" hrs24="1" chaywa="1" lat="-25.9851" lng="27.9214" distance="25.872962500192788"/>
<marker name="Chris Hani Crossing" address1="86 Chris Hani Crossing" address2="Gleanvista Extension 6" address3="Vosloorus" tel="011-023-2410" mon="09:00" tues="09:00" wed="09:00" thur="09:00" fri="09:00" sat="09:00" sun="09:00" public="09:00" monEnd="21:00" tuesEnd="21:00" wedEnd="21:00" thurEnd="21:00" friEnd="22:00" satEnd="22:00" sunEnd="21:00" publicEnd="21:00" type="" hrs24="0" chaywa="0" lat="-26.3452" lng="28.1819" distance="26.103985564649502"/>
<marker name="Randfontein Village Square" address1="Shop 46 Village Square Shopping Centre" address2="Azaadville" address3="Randfontein" tel="011-693-6438" mon="07:30" tues="07:30" wed="07:30" thur="07:30" fri="07:30" sat="07:30" sun="07:30" public="07:30" monEnd="18:30" tuesEnd="18:30" wedEnd="18:30" thurEnd="18:30" friEnd="18:30" satEnd="18:00" sunEnd="16:00" publicEnd="18:00" type="" hrs24="0" chaywa="0" lat="-26.1765" lng="27.7043" distance="26.29069254838042"/>
<marker name="Elspark" address1="Shop 1 Cleo Center" address2="Westwood" address3="Elspark" tel="011-893-1955" mon="09:00" tues="09:00" wed="09:00" thur="09:00" fri="09:00" sat="09:00" sun="09:00" public="09:00" monEnd="21:00" tuesEnd="21:00" wedEnd="21:00" thurEnd="21:00" friEnd="21:00" satEnd="21:00" sunEnd="21:00" publicEnd="21:00" type="" hrs24="0" chaywa="0" lat="-26.2687" lng="28.2255" distance="26.730972197237598"/>
<marker name="Emperors Palace" address1="Shop 11 Emperors Palace" address2="Postnet Suite 334" address3="Jones Street" tel="011-928-1234" mon="10:00" tues="10:00" wed="10:00" thur="10:00" fri="10:00" sat="10:00" sun="10:00" public="10:00" monEnd="23:00" tuesEnd="23:00" wedEnd="23:00" thurEnd="23:00" friEnd="23:00" satEnd="00:00" sunEnd="23:00" publicEnd="23:00" type="" hrs24="0" chaywa="0" lat="-26.1489" lng="28.2225" distance="26.77303164021884"/>
</markers>